City_ID,City,Country,Date,Lat,Lng,Max Temp,Humidity,Cloudiness,Wind Speed,Current Description,Rain inches (last 3 hrs),Snow inches (last 3 hrs)
0,San Quintin,MX,2020-04-20 04:32:03,30.48,-115.95,59.0,78,89,15.39,overcast clouds,0.0,0.0
1,Hithadhoo,MV,2020-04-20 04:32:04,-0.6,73.08,85.08,74,88,11.41,overcast clouds,0.0,0.0
2,Saskylakh,RU,2020-04-20 04:32:04,71.92,114.08,25.97,95,16,3.09,few clouds,0.0,0.0
3,Winnemucca,US,2020-04-20 04:32:04,40.97,-117.74,42.8,56,1,3.36,clear sky,0.0,0.0
4,Punta Arenas,CL,2020-04-20 04:32:05,-53.15,-70.92,42.8,75,40,28.86,scattered clouds,0.0,0.0
5,Olafsvik,IS,2020-04-20 04:32:05,64.89,-23.71,44.2,91,100,16.51,overcast clouds,0.0,0.0
6,Port Elizabeth,ZA,2020-04-20 04:32:05,-33.92,25.57,69.8,49,0,12.75,clear sky,0.0,0.0
7,Bubaque,GW,2020-04-20 04:32:05,11.28,-15.83,77.09,68,34,12.24,scattered clouds,0.0,0.0
8,Mantua,IT,2020-04-20 04:32:06,45.17,10.78,57.99,77,100,7.0,light rain,0.64,0.0
9,Ushuaia,AR,2020-04-20 04:31:44,-54.8,-68.3,39.2,86,90,25.28,shower rain,0.0,0.0
10,Kapaa,US,2020-04-20 04:32:06,22.08,-159.32,78.8,65,75,10.29,broken clouds,0.0,0.0
11,Nador,MA,2020-04-20 04:32:07,35.17,-2.93,62.6,67,0,17.22,clear sky,0.0,0.0
12,Busselton,AU,2020-04-20 04:30:02,-33.65,115.33,68.0,69,97,5.99,light rain,0.3,0.0
13,Dikson,RU,2020-04-20 04:32:07,73.51,80.55,33.03,96,93,14.9,overcast clouds,0.0,0.0
14,Hualmay,PE,2020-04-20 04:27:59,-11.1,-77.61,70.05,78,6,7.16,clear sky,0.0,0.0
15,Betafo,MG,2020-04-20 04:32:08,-19.83,46.85,62.67,50,24,7.11,few clouds,0.0,0.0
16,Bluff,NZ,2020-04-20 04:32:08,-46.6,168.33,55.99,74,63,7.0,light rain,0.38,0.0
17,Tuktoyaktuk,CA,2020-04-20 04:32:08,69.45,-133.04,8.6,84,90,4.7,light snow,0.0,0.0
18,Tautira,PF,2020-04-20 04:32:09,-17.73,-149.15,86.0,62,47,2.24,scattered clouds,0.0,0.0
19,East London,ZA,2020-04-20 04:32:09,-33.02,27.91,84.2,45,0,11.41,clear sky,0.0,0.0
20,Bambous Virieux,MU,2020-04-20 04:32:09,-20.34,57.76,75.2,88,40,11.41,shower rain,0.0,0.0
21,Qaanaaq,GL,2020-04-20 04:32:10,77.48,-69.36,14.59,82,62,10.51,broken clouds,0.0,0.0
22,Castro,BR,2020-04-20 04:31:53,-24.79,-50.01,55.0,69,66,5.17,broken clouds,0.0,0.0
23,Kavieng,PG,2020-04-20 04:32:10,-2.57,150.8,84.74,71,57,5.41,light rain,0.65,0.0
24,Nandyal,IN,2020-04-20 04:32:11,15.48,78.48,102.58,19,1,9.89,clear sky,0.0,0.0
25,Bredasdorp,ZA,2020-04-20 04:32:11,-34.53,20.04,57.2,87,0,2.24,clear sky,0.0,0.0
26,Avarua,CK,2020-04-20 04:32:11,-21.21,-159.78,80.6,74,4,9.17,clear sky,0.0,0.0
27,Hermanus,ZA,2020-04-20 04:32:12,-34.42,19.23,60.01,78,11,11.99,few clouds,0.0,0.0
28,Codrington,AU,2020-04-20 04:32:12,-38.27,141.97,59.16,57,39,18.9,scattered clouds,0.0,0.0
29,Ilulissat,GL,2020-04-20 04:32:12,69.22,-51.1,24.8,58,100,29.97,light shower snow,0.0,0.0
30,Jiwani,PK,2020-04-20 04:32:13,25.05,61.74,83.35,64,5,6.49,clear sky,0.0,0.0
31,New Norfolk,AU,2020-04-20 04:31:00,-42.78,147.06,62.01,74,61,5.99,light rain,0.29,0.0
32,Clyde River,CA,2020-04-20 04:32:13,70.47,-68.59,-11.2,69,1,4.7,clear sky,0.0,0.0
33,Jamestown,US,2020-04-20 04:29:44,42.1,-79.24,39.0,74,90,10.29,overcast clouds,0.0,0.0
34,Port Alfred,ZA,2020-04-20 04:32:14,-33.59,26.89,69.01,64,0,4.61,clear sky,0.0,0.0
35,Vaini,TO,2020-04-20 04:32:14,-21.2,-175.2,82.4,74,75,8.05,broken clouds,0.0,0.0
36,Esperance,AU,2020-04-20 04:32:14,-33.87,121.9,68.0,49,40,19.46,scattered clouds,0.0,0.0
37,Hobart,AU,2020-04-20 04:32:15,-42.88,147.33,62.01,51,75,28.86,light intensity shower rain,0.0,0.0
38,Tiksi,RU,2020-04-20 04:32:15,71.69,128.87,21.16,94,100,6.73,overcast clouds,0.0,0.0
39,Cape Town,ZA,2020-04-20 04:32:15,-33.93,18.42,63.0,77,75,14.99,broken clouds,0.0,0.0
40,Hilo,US,2020-04-20 04:32:14,19.73,-155.09,75.2,64,40,5.82,scattered clouds,0.0,0.0
41,Bandarbeyla,SO,2020-04-20 04:32:16,9.49,50.81,83.8,65,72,2.57,broken clouds,0.0,0.0
42,Santa Rosa,PH,2020-04-20 04:32:16,14.31,121.11,95.0,53,20,9.17,few clouds,0.0,0.0
43,Hammerfest,NO,2020-04-20 04:32:17,70.66,23.68,39.2,76,40,41.38,scattered clouds,0.0,0.0
44,Jutai,BR,2020-04-20 04:32:17,-5.18,-68.9,71.26,77,8,0.72,clear sky,0.0,0.0
45,Georgetown,MY,2020-04-20 04:30:20,5.41,100.34,93.2,74,20,5.82,few clouds,0.0,0.0
46,Pangai,TO,2020-04-20 04:32:17,-19.8,-174.35,82.4,78,20,11.41,few clouds,0.0,0.0
47,Meulaboh,ID,2020-04-20 04:32:17,4.14,96.13,88.2,62,9,4.36,light rain,0.21,0.0
48,Chuy,UY,2020-04-20 04:32:18,-33.7,-53.46,63.68,85,0,9.28,clear sky,0.0,0.0
49,Sitka,US,2020-04-20 04:32:18,57.05,-135.33,44.6,81,90,3.36,overcast clouds,0.0,0.0
50,Upernavik,GL,2020-04-20 04:32:18,72.79,-56.15,17.92,95,46,18.54,light snow,0.0,0.4
51,Macklin,CA,2020-04-20 04:32:18,52.33,-109.93,38.32,73,48,9.37,scattered clouds,0.0,0.0
52,Grants,US,2020-04-20 04:32:19,35.15,-107.85,46.4,36,1,10.29,clear sky,0.0,0.0
53,Neiafu,TO,2020-04-20 04:32:19,-18.65,-173.98,84.2,70,20,8.05,few clouds,0.0,0.0
54,Gamba,GA,2020-04-20 04:32:19,-2.65,10.0,76.95,87,100,4.68,light rain,2.19,0.0
55,Walvis Bay,NA,2020-04-20 04:27:51,-22.96,14.51,59.0,87,91,13.87,overcast clouds,0.0,0.0
56,Talnakh,RU,2020-04-20 04:30:11,69.49,88.4,37.4,69,100,29.08,overcast clouds,0.0,0.0
57,Kununurra,AU,2020-04-20 04:32:20,-15.77,128.73,98.6,29,14,8.05,few clouds,0.0,0.0
58,Rawson,AR,2020-04-20 04:32:21,-43.3,-65.1,57.31,44,48,27.11,scattered clouds,0.0,0.0
59,Rikitea,PF,2020-04-20 04:30:47,-23.12,-134.97,76.8,71,61,6.62,broken clouds,0.0,0.0
60,Katsuura,JP,2020-04-20 04:27:58,35.13,140.3,60.26,85,100,17.4,light rain,2.93,0.0
61,Mataura,NZ,2020-04-20 04:32:22,-46.19,168.86,55.99,74,66,7.0,broken clouds,0.0,0.0
62,Ajjampur,IN,2020-04-20 04:32:22,13.73,76.01,94.12,20,0,8.68,clear sky,0.0,0.0
63,Meadow Lake,US,2020-04-20 04:32:22,34.8,-106.54,60.8,21,75,8.05,broken clouds,0.0,0.0
64,Lipari,IT,2020-04-20 04:32:23,38.47,14.95,66.99,80,100,3.0,light rain,0.19,0.0
65,Airai,TL,2020-04-20 04:32:23,-8.93,125.41,72.64,47,30,3.29,scattered clouds,0.0,0.0
66,Hasaki,JP,2020-04-20 04:32:23,35.73,140.83,52.0,93,75,6.93,light intensity shower rain,0.0,0.0
67,Concarneau,FR,2020-04-20 04:32:23,47.88,-3.92,52.0,93,100,6.93,light intensity drizzle rain,0.0,0.0
68,Constitucion,CL,2020-04-20 04:32:23,-35.33,-72.42,56.05,67,93,8.37,overcast clouds,0.0,0.0
69,Williston,US,2020-04-20 04:32:24,48.15,-103.62,46.0,55,1,6.93,clear sky,0.0,0.0
70,Port-Cartier,CA,2020-04-20 04:32:24,50.03,-66.87,30.99,86,90,9.17,overcast clouds,0.0,0.0
71,Copiapo,CL,2020-04-20 04:32:24,-27.37,-70.33,60.8,82,0,3.36,clear sky,0.0,0.0
72,Keflavik,IS,2020-04-20 04:32:25,64.0,-22.56,46.4,100,90,26.4,light rain,0.0,0.0
73,Port Hueneme,US,2020-04-20 04:32:25,34.15,-119.2,57.99,82,90,12.75,overcast clouds,0.0,0.0
74,Fortuna,US,2020-04-20 04:32:25,40.6,-124.16,52.0,87,90,6.93,overcast clouds,0.0,0.0
75,Carson City,US,2020-04-20 04:32:25,39.16,-119.77,51.8,32,40,3.6,scattered clouds,0.0,0.0
76,Faanui,PF,2020-04-20 04:32:25,-16.48,-151.75,82.96,76,89,21.74,light rain,0.24,0.0
77,Arraial Do Cabo,BR,2020-04-20 04:32:26,-22.97,-42.03,70.61,81,46,7.05,scattered clouds,0.0,0.0
78,Huilong,CN,2020-04-20 04:32:26,31.81,121.66,65.66,63,29,2.37,scattered clouds,0.0,0.0
79,Luderitz,NA,2020-04-20 04:32:26,-26.65,15.16,59.0,87,40,3.36,scattered clouds,0.0,0.0
80,Albany,US,2020-04-20 04:32:02,42.6,-73.97,50.0,61,96,5.01,light rain,0.3,0.0
81,Palmer,US,2020-04-20 04:32:27,42.16,-72.33,48.0,75,90,5.82,overcast clouds,0.0,0.0
82,Brae,GB,2020-04-20 04:32:27,60.4,-1.35,42.8,86,0,12.75,clear sky,0.0,0.0
83,Ust-Omchug,RU,2020-04-20 04:32:11,61.15,149.63,10.74,82,100,9.78,overcast clouds,0.0,0.0
84,Naze,JP,2020-04-20 04:32:27,28.37,129.48,73.4,64,40,12.75,scattered clouds,0.0,0.0
85,Khandyga,RU,2020-04-20 04:32:28,62.67,135.6,22.59,84,12,3.44,few clouds,0.0,0.0
86,Atuona,PF,2020-04-20 04:32:28,-9.8,-139.03,82.62,76,71,15.99,light rain,0.21,0.0
87,Poum,NC,2020-04-20 04:32:30,-20.23,164.02,80.01,81,95,14.05,light rain,0.7,0.0
88,Butaritari,KI,2020-04-20 04:32:30,3.07,172.79,84.07,70,16,7.16,few clouds,0.0,0.0
89,Luanda,AO,2020-04-20 04:29:45,-8.84,13.23,78.8,94,75,2.24,broken clouds,0.0,0.0
90,Nikolskoye,RU,2020-04-20 04:32:30,59.7,30.79,37.4,79,20,4.47,few clouds,0.0,0.0
91,Puerto Ayora,EC,2020-04-20 04:31:06,-0.74,-90.35,80.01,87,65,7.0,broken clouds,0.0,0.0
92,Cachoeira Do Sul,BR,2020-04-20 04:32:31,-30.04,-52.89,57.0,92,0,3.85,clear sky,0.0,0.0
93,Coronado,US,2020-04-20 04:29:35,32.69,-117.18,62.6,72,90,9.17,overcast clouds,0.0,0.0
94,Mar Del Plata,AR,2020-04-20 04:29:35,-38.0,-57.56,62.01,93,98,4.92,overcast clouds,0.0,0.0
95,Saint-Philippe,RE,2020-04-20 04:32:31,-21.36,55.77,78.01,73,40,16.11,scattered clouds,0.0,0.0
96,Saurimo,AO,2020-04-20 04:32:32,-9.66,20.39,66.27,67,53,5.32,broken clouds,0.0,0.0
97,Lompoc,US,2020-04-20 04:32:32,34.64,-120.46,53.6,76,1,3.36,clear sky,0.0,0.0
98,Barcelos,PT,2020-04-20 04:32:32,41.54,-8.62,53.6,93,75,4.7,broken clouds,0.0,0.0
99,Wilmington Island,US,2020-04-20 04:32:05,32.0,-80.97,66.0,93,90,8.75,heavy intensity rain,0.0,0.0
100,Bathsheba,BB,2020-04-20 04:32:33,13.22,-59.52,78.8,74,20,14.99,few clouds,0.0,0.0
101,Jalu,LY,2020-04-20 04:32:33,29.03,21.55,74.39,22,83,14.92,broken clouds,0.0,0.0
102,Waipawa,NZ,2020-04-20 04:32:33,-41.41,175.52,57.99,72,90,7.0,overcast clouds,0.0,0.0
103,Tasiilaq,GL,2020-04-20 04:32:34,65.61,-37.64,32.0,85,100,6.93,overcast clouds,0.0,0.0
104,Sisimiut,GL,2020-04-20 04:27:59,66.94,-53.67,25.88,89,90,18.84,overcast clouds,0.0,0.0
105,Souillac,MU,2020-04-20 04:29:44,-20.52,57.52,75.2,88,40,11.41,shower rain,0.0,0.0
106,Ambilobe,MG,2020-04-20 04:32:34,-13.2,49.05,82.26,65,82,5.35,broken clouds,0.0,0.0
107,Carnarvon,AU,2020-04-20 04:31:41,-24.87,113.63,78.8,61,30,19.46,scattered clouds,0.0,0.0
108,Kloulklubed,PW,2020-04-20 04:32:35,7.04,134.26,87.8,66,75,13.87,broken clouds,0.0,0.0
109,Samana,DO,2020-04-20 04:32:35,19.21,-69.34,74.08,87,3,7.85,clear sky,0.0,0.0
110,Chokurdakh,RU,2020-04-20 04:32:35,70.63,147.92,12.06,95,96,10.31,overcast clouds,0.0,0.0
111,Mana,GF,2020-04-20 04:32:35,5.66,-53.78,76.69,90,100,9.55,moderate rain,3.62,0.0
112,Comodoro Rivadavia,AR,2020-04-20 04:32:36,-45.87,-67.5,50.0,57,0,18.34,clear sky,0.0,0.0
113,Dabat,ET,2020-04-20 04:32:36,12.98,37.77,66.24,14,99,1.97,overcast clouds,0.0,0.0
114,Birjand,IR,2020-04-20 04:29:00,32.87,59.22,60.8,51,23,4.7,few clouds,0.0,0.0
115,Escanaba,US,2020-04-20 04:30:33,45.75,-87.06,36.0,59,1,9.17,clear sky,0.0,0.0
116,Pangnirtung,CA,2020-04-20 04:32:37,66.15,-65.71,3.43,76,59,4.36,broken clouds,0.0,0.0
117,Cidreira,BR,2020-04-20 04:28:09,-30.18,-50.21,66.7,86,0,15.21,clear sky,0.0,0.0
118,Los Llanos De Aridane,ES,2020-04-20 04:32:37,28.66,-17.92,62.6,67,8,5.82,clear sky,0.0,0.0
119,Ixtapa,MX,2020-04-20 04:32:37,20.7,-105.2,73.4,83,20,3.36,few clouds,0.0,0.0
120,Narsaq,GL,2020-04-20 04:32:38,60.92,-46.05,23.0,49,1,7.67,clear sky,0.0,0.0
121,Dunedin,NZ,2020-04-20 04:31:31,-45.87,170.5,60.01,44,81,1.01,broken clouds,0.0,0.0
122,Huarmey,PE,2020-04-20 04:32:38,-10.07,-78.15,71.37,76,4,5.68,clear sky,0.0,0.0
123,Port Hardy,CA,2020-04-20 04:32:39,50.7,-127.42,50.0,81,75,8.05,broken clouds,0.0,0.0
124,Zhezkazgan,KZ,2020-04-20 04:32:39,47.8,67.71,64.4,31,75,8.95,broken clouds,0.0,0.0
125,Carutapera,BR,2020-04-20 04:32:39,-1.2,-46.02,78.91,86,46,6.4,scattered clouds,0.0,0.0
126,Severo-Kurilsk,RU,2020-04-20 04:32:40,50.68,156.12,32.2,89,46,9.78,scattered clouds,0.0,0.0
127,Longyearbyen,SJ,2020-04-20 04:32:40,78.22,15.64,23.0,85,75,29.97,shower rain,0.0,0.0
128,Ostrovnoy,RU,2020-04-20 04:32:40,68.05,39.51,34.3,91,72,9.78,broken clouds,0.0,0.0
129,Mayo,US,2020-04-20 04:32:40,38.89,-76.51,55.0,87,1,3.36,clear sky,0.0,0.0
130,Puerto Del Rosario,ES,2020-04-20 04:32:41,28.5,-13.86,62.6,72,59,9.17,broken clouds,0.0,0.0
131,Klyuchi,RU,2020-04-20 04:32:41,52.27,79.17,72.27,22,1,5.1,clear sky,0.0,0.0
132,Tiznit,MA,2020-04-20 04:32:41,29.58,-9.5,53.62,74,77,8.05,broken clouds,0.0,0.0
133,Karakol,KG,2020-04-20 04:32:42,42.49,78.39,57.56,17,22,4.68,few clouds,0.0,0.0
134,Mananjary,MG,2020-04-20 04:32:42,-21.22,48.33,77.54,75,49,6.8,light rain,0.65,0.0
135,Gravdal,NO,2020-04-20 04:32:42,68.12,13.5,42.8,93,75,12.75,broken clouds,0.0,0.0
136,Trelew,AR,2020-04-20 04:32:42,-43.25,-65.31,56.64,41,43,25.19,scattered clouds,0.0,0.0
137,Nelson Bay,AU,2020-04-20 04:32:43,-32.72,152.15,73.0,37,99,14.99,overcast clouds,0.0,0.0
138,Alekseyevsk,RU,2020-04-20 04:32:43,57.84,108.35,34.43,65,61,7.18,broken clouds,0.0,0.0
139,Oranjemund,NA,2020-04-20 04:32:43,-28.55,16.43,59.95,86,17,2.48,few clouds,0.0,0.0
140,Maniitsoq,GL,2020-04-20 04:32:43,65.42,-52.9,26.53,88,100,22.79,light snow,0.0,0.12
141,Khategaon,IN,2020-04-20 04:32:44,22.6,76.92,102.06,11,63,14.41,broken clouds,0.0,0.0
142,Bethel,US,2020-04-20 04:32:44,41.37,-73.41,53.6,40,90,8.05,overcast clouds,0.0,0.0
143,Ostashkov,RU,2020-04-20 04:32:44,57.15,33.11,37.44,73,72,6.82,broken clouds,0.0,0.0
144,Rabo De Peixe,PT,2020-04-20 04:32:45,37.8,-25.58,53.6,66,20,9.17,few clouds,0.0,0.0
145,Ilo,PE,2020-04-20 04:32:46,-17.64,-71.34,68.14,76,11,2.01,few clouds,0.0,0.0
146,Sao Joao Da Barra,BR,2020-04-20 04:32:46,-21.64,-41.05,68.49,84,97,8.3,overcast clouds,0.0,0.0
147,Christchurch,NZ,2020-04-20 04:32:47,-43.53,172.63,64.0,44,41,4.7,scattered clouds,0.0,0.0
148,Ayni,TJ,2020-04-20 04:32:47,39.39,68.54,57.92,20,9,1.66,clear sky,0.0,0.0
149,Kodiak,US,2020-04-20 04:32:47,57.79,-152.41,44.6,81,90,13.87,overcast clouds,0.0,0.0
150,Verkh-Usugli,RU,2020-04-20 04:32:48,52.7,115.17,28.58,50,100,13.65,overcast clouds,0.0,0.0
151,Voh,NC,2020-04-20 04:32:48,-20.97,164.7,78.78,84,100,9.95,light rain,1.17,0.0
152,Morganton,US,2020-04-20 04:32:48,35.75,-81.68,52.0,87,90,1.86,overcast clouds,0.0,0.0
153,Honningsvag,NO,2020-04-20 04:32:48,70.98,25.97,39.2,74,40,21.92,scattered clouds,0.0,0.0
154,Turukhansk,RU,2020-04-20 04:32:49,65.82,87.98,42.01,63,100,20.36,overcast clouds,0.0,0.0
155,Sandwick,GB,2020-04-20 04:32:49,60.0,-1.25,42.8,81,0,5.82,clear sky,0.0,0.0
156,Assiniboia,CA,2020-04-20 04:32:49,49.63,-105.98,39.76,62,77,6.24,broken clouds,0.0,0.0
157,Nepomuceno,BR,2020-04-20 04:32:50,-21.24,-45.24,57.85,73,63,3.62,broken clouds,0.0,0.0
158,Akyab,MM,2020-04-20 04:32:50,20.15,92.9,89.47,53,6,10.42,clear sky,0.0,0.0
159,Vao,NC,2020-04-20 04:32:50,-22.67,167.48,71.26,92,100,22.75,heavy intensity rain,40.82,0.0
160,Joshimath,IN,2020-04-20 04:32:51,30.57,79.57,62.98,15,15,5.41,few clouds,0.0,0.0
161,Laguna,US,2020-04-20 04:32:51,38.42,-121.42,60.01,67,1,5.82,clear sky,0.0,0.0
162,Adrar,MR,2020-04-20 04:32:51,20.5,-10.07,69.93,21,0,9.15,clear sky,0.0,0.0
163,Beringovskiy,RU,2020-04-20 04:32:51,63.05,179.32,19.81,96,100,15.03,light snow,0.0,0.46
164,Saint Anthony,US,2020-04-20 04:32:52,45.02,-93.22,42.8,47,1,8.39,clear sky,0.0,0.0
165,Lasa,IT,2020-04-20 04:32:25,46.62,10.7,51.4,51,100,3.8,light rain,0.18,0.0
166,Sambava,MG,2020-04-20 04:32:56,-14.27,50.17,81.39,68,100,6.98,light rain,0.53,0.0
167,Tuy Hoa,VN,2020-04-20 04:32:56,13.08,109.3,88.25,55,33,8.59,scattered clouds,0.0,0.0
168,Olinda,BR,2020-04-20 04:32:57,-8.01,-34.86,78.8,88,75,3.36,broken clouds,0.0,0.0
169,Umm Lajj,SA,2020-04-20 04:31:57,25.02,37.27,79.92,36,0,4.0,clear sky,0.0,0.0
170,Kaitangata,NZ,2020-04-20 04:32:58,-46.28,169.85,61.0,44,74,7.0,broken clouds,0.0,0.0
171,Kahului,US,2020-04-20 04:32:15,20.89,-156.47,78.8,57,75,6.93,broken clouds,0.0,0.0
172,Mabaruma,GY,2020-04-20 04:32:58,8.2,-59.78,75.15,89,74,5.1,broken clouds,0.0,0.0
173,Minab,IR,2020-04-20 04:32:59,27.15,57.08,80.6,65,20,4.7,few clouds,0.0,0.0
174,Chiredzi,ZW,2020-04-20 04:32:59,-21.05,31.67,67.46,66,14,3.11,few clouds,0.0,0.0
175,Iisaku,EE,2020-04-20 04:32:59,59.1,27.31,39.97,76,57,7.54,broken clouds,0.0,0.0
176,Kailua,US,2020-04-20 04:28:22,21.4,-157.74,82.4,54,75,5.82,broken clouds,0.0,0.0
177,Colombia,CU,2020-04-20 04:33:00,20.99,-77.43,74.41,81,19,4.97,light rain,0.23,0.0
178,George Town,MY,2020-04-20 04:33:00,5.41,100.34,93.2,74,20,5.82,few clouds,0.0,0.0
179,Praia Da Vitoria,PT,2020-04-20 04:33:00,38.73,-27.07,55.4,76,40,10.07,scattered clouds,0.0,0.0
180,Muravlenko,RU,2020-04-20 04:33:01,63.79,74.52,42.46,67,0,15.68,clear sky,0.0,0.0
181,Hofn,IS,2020-04-20 04:33:01,64.25,-15.21,44.64,87,93,7.81,overcast clouds,0.0,0.0
182,Zarubino,RU,2020-04-20 04:33:01,42.63,131.09,39.69,94,100,8.55,light rain,0.9,0.0
183,Plettenberg Bay,ZA,2020-04-20 04:33:02,-34.05,23.37,68.02,55,0,1.68,clear sky,0.0,0.0
184,Namatanai,PG,2020-04-20 04:33:02,-3.67,152.43,84.07,72,90,5.3,light rain,1.02,0.0
185,Burshtyn,UA,2020-04-20 04:33:02,49.26,24.63,40.48,62,1,5.75,clear sky,0.0,0.0
186,Tual,ID,2020-04-20 04:33:03,-5.67,132.75,85.71,69,31,6.73,light rain,1.55,0.0
187,Alice Town,BS,2020-04-20 04:33:03,25.72,-79.3,81.16,76,69,18.28,light rain,0.13,0.0
188,Ouargaye,BF,2020-04-20 04:33:03,11.5,0.06,84.42,51,27,10.65,scattered clouds,0.0,0.0
189,Cherskiy,RU,2020-04-20 04:33:03,68.75,161.3,13.89,95,100,5.99,overcast clouds,0.0,0.0
190,Khatanga,RU,2020-04-20 04:33:04,71.97,102.5,33.03,98,30,5.75,scattered clouds,0.0,0.0
191,Pauini,BR,2020-04-20 04:33:04,-7.71,-66.98,72.1,88,65,0.87,broken clouds,0.0,0.0
192,Burmakino,RU,2020-04-20 04:33:04,57.42,40.24,32.0,64,90,4.59,fog,0.0,0.0
193,Paamiut,GL,2020-04-20 04:33:04,61.99,-49.67,22.75,82,7,13.06,clear sky,0.0,0.0
194,Grindavik,IS,2020-04-20 04:33:05,63.84,-22.43,46.4,100,90,26.4,light rain,0.0,0.0
195,Ocosingo,MX,2020-04-20 04:33:05,17.07,-92.25,69.91,57,41,2.89,scattered clouds,0.0,0.0
196,Kostomuksha,RU,2020-04-20 04:33:06,64.57,30.58,36.1,91,100,6.06,overcast clouds,0.0,0.0
197,Ghanzi,BW,2020-04-20 04:29:19,-21.57,21.78,64.04,34,0,8.84,clear sky,0.0,0.0
198,Puerto Leguizamo,CO,2020-04-20 04:33:06,-0.19,-74.78,70.59,79,70,1.59,broken clouds,0.0,0.0
199,Napier,NZ,2020-04-20 04:33:06,-39.48,176.92,64.99,61,100,1.01,overcast clouds,0.0,0.0
200,Svetlyy,RU,2020-04-20 04:33:07,54.67,20.13,39.2,80,0,8.95,clear sky,0.0,0.0
201,Sur,OM,2020-04-20 04:28:17,22.57,59.53,86.29,41,0,6.08,clear sky,0.0,0.0
202,San Policarpo,PH,2020-04-20 04:33:07,12.18,125.51,84.16,77,76,11.03,light rain,0.54,0.0
203,Peniche,PT,2020-04-20 04:33:07,39.36,-9.38,57.0,81,89,5.99,overcast clouds,0.0,0.0
204,North Branch,US,2020-04-20 04:33:08,45.51,-92.98,37.99,55,15,3.0,few clouds,0.0,0.0
205,Road Town,VG,2020-04-20 04:33:08,18.42,-64.62,79.0,84,12,13.0,light rain,0.13,0.0
206,Flinders,AU,2020-04-20 04:30:05,-34.58,150.86,69.01,65,99,1.01,overcast clouds,0.0,0.0
207,Kirakira,SB,2020-04-20 04:33:08,-10.45,161.92,83.52,75,48,0.58,light rain,2.82,0.0
208,Kerrville,US,2020-04-20 04:33:09,30.05,-99.14,68.0,62,1,6.24,clear sky,0.0,0.0
209,Oriximina,BR,2020-04-20 04:33:09,-1.77,-55.87,73.92,94,100,0.6,overcast clouds,0.0,0.0
210,Barrow,US,2020-04-20 04:33:09,71.29,-156.79,10.4,85,90,5.82,overcast clouds,0.0,0.0
211,Anadyr,RU,2020-04-20 04:33:11,64.75,177.48,19.4,73,96,6.71,overcast clouds,0.0,0.0
212,Agadez,NE,2020-04-20 04:33:11,19.75,10.25,82.35,12,44,8.84,scattered clouds,0.0,0.0
213,Filadelfia,US,2020-04-20 04:32:58,39.95,-75.16,55.99,58,90,3.36,overcast clouds,0.0,0.0
214,Lamar,US,2020-04-20 04:33:12,33.67,-95.58,61.0,93,90,6.93,overcast clouds,0.0,0.0
215,Sao Felix Do Xingu,BR,2020-04-20 04:33:12,-6.64,-51.99,70.97,91,97,0.67,moderate rain,4.73,0.0
216,Nisia Floresta,BR,2020-04-20 04:33:12,-6.09,-35.21,78.8,88,20,2.24,few clouds,0.0,0.0
217,Key West,US,2020-04-20 04:31:15,24.56,-81.78,82.4,78,1,14.99,clear sky,0.0,0.0
218,Raymond,US,2020-04-20 04:33:13,43.9,-70.47,50.0,65,71,1.99,broken clouds,0.0,0.0
219,Pisco,PE,2020-04-20 04:33:13,-13.7,-76.22,68.0,82,0,3.36,clear sky,0.0,0.0
220,Yellowknife,CA,2020-04-20 04:33:13,62.46,-114.35,14.0,66,75,5.82,broken clouds,0.0,0.0
221,Asau,RO,2020-04-20 04:33:14,46.43,26.4,41.0,60,71,9.17,broken clouds,0.0,0.0
222,Saint George,US,2020-04-20 04:31:26,37.1,-113.58,62.6,42,20,17.22,few clouds,0.0,0.0
223,Mingshui,CN,2020-04-20 04:33:14,36.72,117.5,66.99,22,11,1.99,few clouds,0.0,0.0
224,Zaozerne,UA,2020-04-20 04:33:15,45.16,33.28,47.86,88,100,19.55,light rain,2.36,0.0
225,Thompson,CA,2020-04-20 04:33:15,55.74,-97.86,15.8,92,75,4.7,light snow,0.0,0.0
226,Shaoguan,CN,2020-04-20 04:33:15,24.8,113.58,85.46,60,74,4.45,light rain,0.53,0.0
227,Chadan,RU,2020-04-20 04:33:15,51.28,91.58,58.03,24,0,3.47,clear sky,0.0,0.0
228,Mokhsogollokh,RU,2020-04-20 04:33:15,61.47,128.92,25.86,83,35,4.92,scattered clouds,0.0,0.0
229,Cullman,US,2020-04-20 04:33:16,34.17,-86.84,57.2,93,90,8.05,heavy intensity rain,0.0,0.0
230,Sayyan,YE,2020-04-20 04:33:16,15.17,44.32,64.45,27,98,2.28,overcast clouds,0.0,0.0
231,Lima,PE,2020-04-20 04:29:27,-12.04,-77.03,68.0,82,38,12.75,scattered clouds,0.0,0.0
232,Yelizovo,RU,2020-04-20 04:33:16,53.19,158.38,39.2,29,10,17.9,clear sky,0.0,0.0
233,Whitehorse,CA,2020-04-20 04:30:21,60.72,-135.05,51.8,43,75,10.29,broken clouds,0.0,0.0
234,Yulara,AU,2020-04-20 04:33:17,-25.24,130.99,96.8,18,20,8.05,few clouds,0.0,0.0
235,Avera,US,2020-04-20 04:33:17,33.19,-82.53,57.2,95,90,6.93,moderate rain,0.0,0.0
236,Sola,VU,2020-04-20 04:33:17,-13.88,167.55,89.6,75,40,5.82,scattered clouds,0.0,0.0
237,Ljungby,SE,2020-04-20 04:33:17,56.83,13.94,33.01,86,13,3.22,few clouds,0.0,0.0
238,Corinto,GR,2020-04-20 04:33:18,37.94,22.96,55.99,76,71,0.94,broken clouds,0.0,0.0
239,Galveston,US,2020-04-20 04:33:18,29.37,-94.97,73.99,100,90,6.93,fog,0.0,0.0
240,Ulaangom,MN,2020-04-20 04:33:18,49.98,92.07,49.19,32,0,4.9,clear sky,0.0,0.0
241,Srednekolymsk,RU,2020-04-20 04:33:18,67.45,153.68,18.16,93,100,10.36,overcast clouds,0.0,0.0
242,Half Moon Bay,US,2020-04-20 04:33:18,37.46,-122.43,57.0,71,90,4.7,overcast clouds,0.0,0.0
243,Saldanha,ZA,2020-04-20 04:33:19,-33.01,17.94,59.0,82,85,11.41,overcast clouds,0.0,0.0
244,Mitsamiouli,KM,2020-04-20 04:33:19,-11.38,43.28,82.72,72,53,13.13,light rain,0.31,0.0
245,San Borja,BO,2020-04-20 04:33:19,-14.82,-66.85,68.27,72,60,2.24,broken clouds,0.0,0.0
246,Pevek,RU,2020-04-20 04:33:19,69.7,170.31,12.09,95,100,9.04,light snow,0.0,0.16
247,Coquimbo,CL,2020-04-20 04:33:20,-29.95,-71.34,60.8,87,6,1.12,clear sky,0.0,0.0
248,Bengkulu,ID,2020-04-20 04:33:20,-3.8,102.27,88.72,59,47,6.26,scattered clouds,0.0,0.0
249,Ribeira Brava,PT,2020-04-20 04:33:20,32.65,-17.07,62.01,76,14,4.0,light rain,0.15,0.0
250,Biu,NG,2020-04-20 04:33:20,10.61,12.19,77.23,53,65,6.55,broken clouds,0.0,0.0
251,Haikou,CN,2020-04-20 04:30:58,20.05,110.34,89.6,55,20,8.95,few clouds,0.0,0.0
252,Capljina,BA,2020-04-20 04:33:21,43.12,17.68,63.36,65,100,2.21,overcast clouds,0.0,0.0
253,Iqaluit,CA,2020-04-20 04:33:21,63.75,-68.51,-7.01,69,5,2.68,clear sky,0.0,0.0
254,Synya,RU,2020-04-20 04:33:21,65.37,58.04,34.83,94,100,6.22,light snow,0.0,0.32
255,Nyirtelek,HU,2020-04-20 04:33:22,48.02,21.63,42.8,45,0,12.75,clear sky,0.0,0.0
256,Salinopolis,BR,2020-04-20 04:33:22,-0.61,-47.36,80.58,82,49,7.09,light rain,1.71,0.0
257,Broome,US,2020-04-20 04:33:22,42.25,-75.83,44.01,80,90,14.99,light rain,0.0,0.0
258,Barra Patuca,HN,2020-04-20 04:33:23,15.8,-84.28,79.54,80,47,15.19,scattered clouds,0.0,0.0
259,Makinsk,KZ,2020-04-20 04:33:23,52.63,70.42,64.2,40,91,8.86,overcast clouds,0.0,0.0
260,Ancud,CL,2020-04-20 04:32:32,-41.87,-73.82,42.8,100,58,3.36,broken clouds,0.0,0.0
261,Komatipoort,ZA,2020-04-20 04:33:23,-25.43,31.95,59.0,95,0,7.0,clear sky,0.0,0.0
262,Odweyne,SO,2020-04-20 04:33:23,9.41,45.06,78.39,44,90,14.07,overcast clouds,0.0,0.0
263,Kongoussi,BF,2020-04-20 04:33:24,13.33,-1.53,84.76,41,87,6.73,light rain,0.13,0.0
264,Derzhavinsk,KZ,2020-04-20 04:33:24,51.1,66.32,70.59,28,92,17.81,overcast clouds,0.0,0.0
265,Altoona,US,2020-04-20 04:33:24,40.52,-78.39,42.69,78,96,4.41,overcast clouds,0.0,0.0
266,Pemangkat,ID,2020-04-20 04:33:24,1.17,108.97,83.26,70,55,7.4,broken clouds,0.0,0.0
267,Vila,PT,2020-04-20 04:33:25,42.03,-8.16,50.0,93,75,4.7,broken clouds,0.0,0.0
268,Provideniya,RU,2020-04-20 04:32:54,64.38,-173.3,21.36,95,100,11.59,light snow,0.0,0.32
269,Pahrump,US,2020-04-20 04:33:25,36.21,-115.98,64.0,37,26,3.74,scattered clouds,0.0,0.0
270,Duzce,TR,2020-04-20 04:31:56,40.84,31.16,67.59,42,55,1.7,broken clouds,0.0,0.0
271,Lebu,CL,2020-04-20 04:33:25,-37.62,-73.65,55.72,69,100,9.55,overcast clouds,0.0,0.0
272,Nouadhibou,MR,2020-04-20 04:33:26,20.93,-17.03,64.4,72,0,26.4,sand,0.0,0.0
273,Hammond,US,2020-04-20 04:30:55,41.58,-87.5,39.99,62,1,3.06,clear sky,0.0,0.0
274,Kodinsk,RU,2020-04-20 04:33:26,58.69,99.18,43.43,51,0,6.69,clear sky,0.0,0.0
275,Alofi,NU,2020-04-20 04:33:26,-19.06,-169.92,78.8,88,5,10.29,light rain,0.18,0.0
276,Otane,NZ,2020-04-20 04:33:27,-39.88,176.63,61.0,72,100,4.0,overcast clouds,0.0,0.0
277,Santa Maria Del Oro,MX,2020-04-20 04:33:27,25.93,-105.37,56.35,22,21,8.28,few clouds,0.0,0.0
278,Raudeberg,NO,2020-04-20 04:33:27,61.99,5.14,39.99,93,0,8.05,clear sky,0.0,0.0
279,Manitouwadge,CA,2020-04-20 04:33:27,49.12,-85.84,24.26,95,62,10.74,broken clouds,0.0,0.0
280,Kommunar,RU,2020-04-20 04:33:28,59.62,30.39,37.4,79,20,4.47,few clouds,0.0,0.0
281,Solton,RU,2020-04-20 04:33:28,52.84,86.48,61.84,38,73,4.29,broken clouds,0.0,0.0
282,Manaure,CO,2020-04-20 04:33:28,11.78,-72.44,79.05,77,72,12.01,broken clouds,0.0,0.0
283,Tilichiki,RU,2020-04-20 04:33:04,60.47,166.1,17.01,91,100,11.34,overcast clouds,0.0,0.0
284,Lumberton,US,2020-04-20 04:33:28,34.62,-79.01,61.0,82,90,4.63,overcast clouds,0.0,0.0
285,Teknaf,BD,2020-04-20 04:33:29,20.86,92.31,91.6,46,26,9.57,scattered clouds,0.0,0.0
286,Ponnani,IN,2020-04-20 04:33:29,10.77,75.93,91.4,55,20,4.7,few clouds,0.0,0.0
287,Auki,SB,2020-04-20 04:33:29,-8.77,160.7,83.48,74,49,3.11,light rain,2.94,0.0
288,Ponta Do Sol,PT,2020-04-20 04:33:00,32.67,-17.1,62.01,76,17,8.99,light rain,0.17,0.0
289,Guerrero Negro,MX,2020-04-20 04:33:29,27.98,-114.06,60.19,77,99,16.4,overcast clouds,0.0,0.0
290,Tessalit,ML,2020-04-20 04:33:30,20.2,1.01,75.52,38,14,9.28,few clouds,0.0,0.0
291,Torbay,CA,2020-04-20 04:33:30,47.67,-52.73,35.6,100,90,24.16,light intensity drizzle,0.0,0.0
292,Banjar,ID,2020-04-20 04:33:30,-8.19,114.97,87.8,84,20,6.93,few clouds,0.0,0.0
293,Esso,RU,2020-04-20 04:33:30,55.93,158.7,19.51,83,91,11.18,light snow,0.0,0.12
294,Goderich,CA,2020-04-20 04:33:30,43.75,-81.72,35.01,66,0,8.3,clear sky,0.0,0.0
295,Hirara,JP,2020-04-20 04:33:31,24.8,125.28,75.2,78,75,16.11,broken clouds,0.0,0.0
296,Atar,MR,2020-04-20 04:33:31,20.52,-13.05,65.21,26,0,11.81,clear sky,0.0,0.0
297,Te Anau,NZ,2020-04-20 04:33:31,-45.42,167.72,49.12,67,40,5.57,light rain,0.28,0.0
298,Providencia,MX,2020-04-20 04:32:55,28.72,-111.58,69.03,45,84,5.88,broken clouds,0.0,0.0
299,Angoram,PG,2020-04-20 04:33:32,-4.06,144.07,84.42,79,95,4.56,light rain,1.57,0.0
300,Ust-Tsilma,RU,2020-04-20 04:33:32,65.44,52.15,36.1,91,39,3.44,scattered clouds,0.0,0.0
301,Sovetskiy,RU,2020-04-20 04:33:32,61.36,63.58,45.82,55,10,8.41,clear sky,0.0,0.0
302,Novyy Urengoy,RU,2020-04-20 04:33:33,66.08,76.63,33.28,98,98,11.99,overcast clouds,0.0,0.0
303,Rodos,GR,2020-04-20 04:33:33,36.44,28.22,59.0,93,20,3.36,few clouds,0.0,0.0
304,Kavaratti,IN,2020-04-20 04:33:33,10.57,72.64,87.8,66,20,4.7,few clouds,0.0,0.0
305,Urusha,RU,2020-04-20 04:33:33,54.05,122.9,28.31,68,99,17.83,overcast clouds,0.0,0.0
306,Leh,IN,2020-04-20 04:33:34,34.17,77.58,37.53,16,87,1.14,overcast clouds,0.0,0.0
307,Weligama,LK,2020-04-20 04:33:35,5.97,80.42,91.09,58,3,8.21,clear sky,0.0,0.0
308,Roanoke Rapids,US,2020-04-20 04:33:35,36.46,-77.65,55.99,100,1,3.8,clear sky,0.0,0.0
309,Mitzic,GA,2020-04-20 04:33:35,0.78,11.55,69.04,83,93,1.72,overcast clouds,0.0,0.0
310,Clarence Town,AU,2020-04-20 04:33:36,-32.58,151.78,73.0,37,99,14.99,overcast clouds,0.0,0.0
311,Gorbatovka,RU,2020-04-20 04:33:36,56.25,43.75,44.01,93,40,1.97,scattered clouds,0.0,0.0
312,Patacamaya,BO,2020-04-20 04:33:36,-17.23,-67.92,43.74,26,69,2.71,broken clouds,0.0,0.0
313,Phibun Mangsahan,TH,2020-04-20 04:33:36,15.24,105.23,96.01,53,20,3.36,few clouds,0.0,0.0
314,Sergeyevka,KZ,2020-04-20 04:33:37,53.88,67.42,57.29,56,93,9.08,light rain,0.28,0.0
315,Acapulco,MX,2020-04-20 04:31:34,16.86,-99.89,77.0,94,5,2.04,clear sky,0.0,0.0
316,Kandrian,PG,2020-04-20 04:33:37,-6.22,149.55,84.42,75,51,5.53,light rain,1.57,0.0
317,Casa Grande,US,2020-04-20 04:33:37,32.88,-111.76,73.4,25,1,4.7,clear sky,0.0,0.0
318,Kingaroy,AU,2020-04-20 04:33:37,-26.53,151.83,78.8,22,19,10.29,few clouds,0.0,0.0
319,Biak,ID,2020-04-20 04:33:38,-0.91,122.88,83.89,70,91,6.26,light rain,2.28,0.0
320,Leningradskiy,RU,2020-04-20 04:33:38,69.38,178.42,11.59,94,95,8.34,overcast clouds,0.0,0.0
321,Vanavara,RU,2020-04-20 04:33:38,60.34,102.28,40.03,58,0,1.03,clear sky,0.0,0.0
322,Laurel,US,2020-04-20 04:33:38,39.1,-76.85,53.01,76,1,4.5,clear sky,0.0,0.0
323,Belmonte,BR,2020-04-20 04:33:38,-15.86,-38.88,71.6,88,71,5.82,light rain,0.48,0.0
324,Consett,GB,2020-04-20 04:33:39,54.85,-1.83,39.99,93,13,2.24,few clouds,0.0,0.0
325,Eyl,SO,2020-04-20 04:33:39,7.98,49.82,85.96,63,72,6.62,broken clouds,0.0,0.0
326,Fairbanks,US,2020-04-20 04:33:39,64.84,-147.72,41.0,100,90,6.38,light rain,0.0,0.0
327,Sao Jose Da Coroa Grande,BR,2020-04-20 04:33:39,-8.9,-35.15,79.07,81,47,7.45,moderate rain,3.9,0.0
328,Victoria,HK,2020-04-20 04:30:14,22.29,114.16,86.0,76,13,10.0,few clouds,0.0,0.0
329,Karasjok,NO,2020-04-20 04:33:40,69.47,25.51,41.0,56,64,55.25,broken clouds,0.0,0.0
330,Ahipara,NZ,2020-04-20 04:33:40,-35.17,173.17,64.24,91,100,4.85,light rain,2.34,0.0
331,Ribeira Grande,PT,2020-04-20 04:33:40,38.52,-28.7,56.05,57,35,5.17,scattered clouds,0.0,0.0
332,Bella Union,UY,2020-04-20 04:33:40,-30.28,-57.6,61.43,67,0,5.66,clear sky,0.0,0.0
333,Dzerzhinskoye,RU,2020-04-20 04:33:41,56.83,95.23,46.85,45,1,13.6,clear sky,0.0,0.0
334,Mahebourg,MU,2020-04-20 04:33:41,-20.41,57.7,75.2,88,40,11.41,shower rain,0.0,0.0
335,Cabo San Lucas,MX,2020-04-20 04:32:03,22.89,-109.91,70.0,68,43,11.77,scattered clouds,0.0,0.0
336,Qaqortoq,GL,2020-04-20 04:29:04,60.72,-46.03,23.0,49,3,4.7,clear sky,0.0,0.0
337,Tongzi,CN,2020-04-20 04:33:42,28.78,105.09,67.55,63,93,4.36,overcast clouds,0.0,0.0
338,Nemuro,JP,2020-04-20 04:33:42,43.32,145.57,41.0,75,75,13.87,broken clouds,0.0,0.0
339,Caceres,ES,2020-04-20 04:33:42,39.52,-6.37,46.99,91,97,4.0,overcast clouds,0.0,0.0
340,Salina,US,2020-04-20 04:31:40,38.84,-97.61,57.2,47,1,9.17,clear sky,0.0,0.0
341,Berlevag,NO,2020-04-20 04:33:43,70.86,29.09,39.2,76,40,20.8,scattered clouds,0.0,0.0
342,Bosaso,SO,2020-04-20 04:33:43,11.28,49.18,85.8,61,83,4.0,broken clouds,0.0,0.0
343,Hay River,CA,2020-04-20 04:33:43,60.82,-115.8,28.4,63,40,5.82,scattered clouds,0.0,0.0
344,Twentynine Palms,US,2020-04-20 04:33:44,34.14,-116.05,66.2,34,1,13.87,clear sky,0.0,0.0
345,Antalaha,MG,2020-04-20 04:33:44,-14.9,50.28,79.81,76,92,6.76,light rain,2.7,0.0
346,Yulin,CN,2020-04-20 04:33:44,22.63,110.15,87.26,61,57,12.48,broken clouds,0.0,0.0
347,Abu Samrah,SY,2020-04-20 04:33:44,35.3,37.18,72.95,30,62,5.19,broken clouds,0.0,0.0
348,Lagoa,PT,2020-04-20 04:33:45,39.05,-27.98,56.62,57,19,9.51,few clouds,0.0,0.0
349,Lingao,CN,2020-04-20 04:33:45,19.91,109.69,81.82,72,32,9.75,scattered clouds,0.0,0.0
350,Vostok,RU,2020-04-20 04:33:45,46.49,135.88,40.48,52,100,10.42,light rain,0.14,0.0
351,Husavik,IS,2020-04-20 04:33:46,66.04,-17.34,44.6,70,4,21.92,clear sky,0.0,0.0
352,Yelan-Kolenovskiy,RU,2020-04-20 04:33:46,51.16,41.15,44.24,68,82,5.88,broken clouds,0.0,0.0
353,La Palma,US,2020-04-20 04:33:46,33.85,-118.05,61.0,72,1,9.17,clear sky,0.0,0.0
354,Berdigestyakh,RU,2020-04-20 04:33:04,62.1,126.7,26.55,84,72,3.91,broken clouds,0.0,0.0
355,Touros,BR,2020-04-20 04:33:46,-5.2,-35.46,75.2,100,40,2.24,scattered clouds,0.0,0.0
356,Ust-Maya,RU,2020-04-20 04:33:47,60.42,134.53,24.94,85,84,3.98,light snow,0.0,0.11
357,Faya,SA,2020-04-20 04:33:47,18.39,42.45,66.2,59,99,6.24,light rain,0.78,0.0
358,Petropavlovsk-Kamchatskiy,RU,2020-04-20 04:32:07,53.05,158.65,39.2,29,22,17.9,few clouds,0.0,0.0
359,Council Bluffs,US,2020-04-20 04:31:35,41.26,-95.86,52.0,61,75,4.7,broken clouds,0.0,0.0
360,Rio Tuba,PH,2020-04-20 04:33:48,8.51,117.43,85.77,70,100,9.19,light rain,2.89,0.0
361,Durban,ZA,2020-04-20 04:33:48,-29.86,31.03,60.8,93,0,3.36,clear sky,0.0,0.0
362,Presidencia Roque Saenz Pena,AR,2020-04-20 04:33:48,-26.79,-60.44,61.39,69,0,3.91,clear sky,0.0,0.0
363,Kieta,PG,2020-04-20 04:33:48,-6.22,155.63,82.99,74,93,2.89,moderate rain,3.34,0.0
364,Vardo,NO,2020-04-20 04:33:49,70.37,31.11,37.4,77,40,17.22,scattered clouds,0.0,0.0
365,Zemio,CF,2020-04-20 04:33:50,5.03,25.14,75.15,67,95,3.94,overcast clouds,0.0,0.0
366,Lahaina,US,2020-04-20 04:33:50,20.88,-156.68,78.8,57,75,6.93,broken clouds,0.0,0.0
367,Bronnoysund,NO,2020-04-20 04:33:51,65.46,12.2,42.8,87,100,6.93,light rain,0.12,0.0
368,Lorengau,PG,2020-04-20 04:33:51,-2.02,147.27,85.41,69,34,4.76,light rain,0.28,0.0
369,San Javier,ES,2020-04-20 04:33:52,37.81,-0.84,59.0,93,28,4.7,scattered clouds,0.0,0.0
370,Sao Filipe,CV,2020-04-20 04:33:52,14.9,-24.5,70.47,75,0,15.88,clear sky,0.0,0.0
371,Singaraja,ID,2020-04-20 04:33:53,-8.11,115.09,85.95,65,22,3.31,light rain,0.77,0.0
372,La Orilla,MX,2020-04-20 04:33:53,17.98,-102.23,75.27,84,60,1.59,broken clouds,0.0,0.0
373,Sawakin,SD,2020-04-20 04:33:54,19.11,37.33,82.49,34,0,2.66,clear sky,0.0,0.0
374,Wanning,CN,2020-04-20 04:33:54,18.8,110.4,85.41,67,50,11.7,scattered clouds,0.0,0.0
375,Beroroha,MG,2020-04-20 04:33:54,-21.67,45.17,79.43,47,0,14.79,clear sky,0.0,0.0
376,Ewa Beach,US,2020-04-20 04:30:26,21.32,-158.01,80.6,61,1,6.93,clear sky,0.0,0.0
377,Deputatskiy,RU,2020-04-20 04:33:55,69.3,139.9,12.0,88,60,6.06,broken clouds,0.0,0.0
378,Itapuranga,BR,2020-04-20 04:33:55,-15.56,-49.95,67.01,78,54,5.7,light rain,0.33,0.0
379,Dingle,PH,2020-04-20 04:30:18,11.0,122.67,90.52,57,86,14.45,light rain,0.11,0.0
380,Balkanabat,TM,2020-04-20 04:33:55,39.51,54.37,74.12,36,0,6.08,clear sky,0.0,0.0
381,Skibbereen,IE,2020-04-20 04:33:56,51.55,-9.27,46.4,81,19,11.41,few clouds,0.0,0.0
382,Korla,CN,2020-04-20 04:31:25,41.76,86.15,66.18,20,91,3.44,light rain,0.2,0.0
383,Kyren,RU,2020-04-20 04:33:56,51.68,102.14,35.96,47,48,7.67,scattered clouds,0.0,0.0
384,Karlstad,SE,2020-04-20 04:33:56,59.38,13.5,39.2,80,8,8.05,clear sky,0.0,0.0
385,Buchanan,LR,2020-04-20 04:33:56,5.88,-10.05,78.8,94,40,4.63,scattered clouds,0.0,0.0
386,Rundu,NA,2020-04-20 04:33:57,-17.93,19.77,60.8,87,36,3.36,scattered clouds,0.0,0.0
387,Praia,CV,2020-04-20 04:33:57,14.92,-23.51,69.8,68,20,11.41,few clouds,0.0,0.0
388,Silver City,US,2020-04-20 04:33:57,32.77,-108.28,50.0,39,1,9.17,clear sky,0.0,0.0
389,Port Blair,IN,2020-04-20 04:33:39,11.67,92.75,85.21,74,28,8.08,light rain,1.03,0.0
390,Beloha,MG,2020-04-20 04:33:58,-25.17,45.05,77.61,60,1,17.49,clear sky,0.0,0.0
391,Macusani,PE,2020-04-20 04:33:58,-14.08,-70.43,30.51,23,87,1.03,overcast clouds,0.0,0.0
392,Pelym,RU,2020-04-20 04:33:58,61.01,62.0,46.69,53,0,7.0,clear sky,0.0,0.0
393,Port Hedland,AU,2020-04-20 04:33:59,-20.32,118.57,95.0,50,56,11.41,broken clouds,0.0,0.0
394,Medea,DZ,2020-04-20 04:33:07,36.26,2.75,62.6,88,40,19.46,scattered clouds,0.0,0.0
395,Mountain Home,US,2020-04-20 04:30:02,43.13,-115.69,55.99,30,1,11.41,clear sky,0.0,0.0
396,Swinoujscie,PL,2020-04-20 04:33:59,53.91,14.25,36.0,99,5,5.48,clear sky,0.0,0.0
397,Zhanaozen,KZ,2020-04-20 04:34:00,43.3,52.8,65.73,48,10,1.77,clear sky,0.0,0.0
398,Fort Frances,CA,2020-04-20 04:34:00,48.6,-93.4,37.99,47,75,10.29,broken clouds,0.0,0.0
399,Quchan,IR,2020-04-20 04:34:01,37.11,58.51,63.16,24,0,0.67,clear sky,0.0,0.0
400,Vaitape,PF,2020-04-20 04:34:01,-16.52,-151.75,83.75,77,87,21.77,light rain,0.2,0.0
401,Rivadavia,AR,2020-04-20 04:30:13,-33.19,-68.46,66.2,63,0,4.7,clear sky,0.0,0.0
402,Yadgir,IN,2020-04-20 04:34:01,16.77,77.13,99.75,19,0,5.84,clear sky,0.0,0.0
403,Dalnerechensk,RU,2020-04-20 04:32:03,45.93,133.72,46.98,67,100,14.5,light rain,0.38,0.0
404,Geraldton,AU,2020-04-20 04:31:07,-28.77,114.6,75.0,46,75,13.87,broken clouds,0.0,0.0
405,Ndioum,SN,2020-04-20 04:34:02,16.51,-14.65,71.6,56,0,4.7,clear sky,0.0,0.0
406,Jasper,US,2020-04-20 04:30:16,37.2,-94.35,55.99,71,1,6.93,clear sky,0.0,0.0
407,Vila Franca Do Campo,PT,2020-04-20 04:34:02,37.72,-25.43,53.6,66,20,9.17,few clouds,0.0,0.0
408,Lincoln,US,2020-04-20 04:31:35,40.8,-96.67,50.0,49,1,3.36,clear sky,0.0,0.0
409,Benjamin Hill,MX,2020-04-20 04:34:03,30.17,-111.1,66.0,41,51,1.01,broken clouds,0.0,0.0
410,Gigmoto,PH,2020-04-20 04:34:03,13.78,124.39,82.74,77,100,10.02,overcast clouds,0.0,0.0
411,Severnyy,RU,2020-04-20 04:34:03,50.68,36.55,37.4,74,79,6.71,broken clouds,0.0,0.0
412,Norman Wells,CA,2020-04-20 04:32:10,65.28,-126.83,28.4,86,90,2.24,light snow,0.0,0.0
413,Zalantun,CN,2020-04-20 04:34:04,48.0,122.72,27.07,93,100,20.07,snow,0.0,2.3
414,Alice Springs,AU,2020-04-20 04:30:54,-23.7,133.88,98.6,14,75,9.17,broken clouds,0.0,0.0
415,Grand Gaube,MU,2020-04-20 04:34:04,-20.01,57.66,75.2,88,40,11.41,shower rain,0.0,0.0
416,Corralillo,CU,2020-04-20 04:34:04,22.98,-80.59,75.56,84,2,8.19,clear sky,0.0,0.0
417,Linkou,CN,2020-04-20 04:34:05,45.3,130.28,41.45,79,100,13.02,light rain,0.61,0.0
418,Kaoma,ZM,2020-04-20 04:34:05,-14.78,24.8,64.33,58,1,7.23,clear sky,0.0,0.0
419,Saint-Louis,SN,2020-04-20 04:34:05,16.33,-15.0,71.6,56,0,4.7,clear sky,0.0,0.0
420,Cockburn Town,TC,2020-04-20 04:34:05,21.46,-71.14,79.09,82,38,18.48,scattered clouds,0.0,0.0
421,La Ronge,CA,2020-04-20 04:34:06,55.1,-105.28,33.8,50,75,11.41,broken clouds,0.0,0.0
422,Srivardhan,IN,2020-04-20 04:34:06,18.03,73.02,98.58,30,18,10.65,few clouds,0.0,0.0
423,Khasan,RU,2020-04-20 04:34:06,42.43,130.64,45.12,81,98,7.96,light rain,0.2,0.0
424,Fare,PF,2020-04-20 04:34:07,-16.7,-151.02,83.21,78,77,21.34,broken clouds,0.0,0.0
425,Gairo,IT,2020-04-20 04:34:07,39.85,9.5,59.0,100,90,16.11,fog,0.0,0.0
426,Franklin,US,2020-04-20 04:34:07,39.97,-83.02,48.2,81,20,8.9,few clouds,0.0,0.0
427,Ligayan,PH,2020-04-20 04:34:07,4.65,119.47,84.97,70,33,7.96,light rain,0.72,0.0
428,Marawi,PH,2020-04-20 04:34:07,8.0,124.29,78.69,67,98,4.03,moderate rain,6.36,0.0
429,Uirauna,BR,2020-04-20 04:34:08,-6.52,-38.41,72.07,86,94,6.82,moderate rain,4.07,0.0
430,Yaqui,MX,2020-04-20 04:34:08,27.37,-110.17,67.59,50,24,5.23,few clouds,0.0,0.0
431,Aberdeen,GB,2020-04-20 04:32:53,57.14,-2.1,33.8,81,0,1.12,clear sky,0.0,0.0
432,Namibe,AO,2020-04-20 04:34:08,-15.2,12.15,74.79,76,81,4.52,light rain,1.73,0.0
433,Kudahuvadhoo,MV,2020-04-20 04:34:09,2.67,72.89,85.6,73,89,9.98,overcast clouds,0.0,0.0
434,Fukue,JP,2020-04-20 04:34:09,32.69,128.84,60.8,72,75,10.29,broken clouds,0.0,0.0
435,Bonfim,BR,2020-04-20 04:34:10,3.08,-59.95,80.89,67,100,3.04,light rain,1.67,0.0
436,Itaituba,BR,2020-04-20 04:34:10,-4.28,-55.98,71.42,96,99,0.78,overcast clouds,0.0,0.0
437,Wicklow,IE,2020-04-20 04:34:10,53.0,-6.42,42.8,87,70,8.05,broken clouds,0.0,0.0
438,Mangaluru,IN,2020-04-20 04:34:11,12.87,74.88,91.4,59,20,4.7,few clouds,0.0,0.0
439,Tekeli,KZ,2020-04-20 04:34:11,44.83,78.82,61.56,20,0,2.26,clear sky,0.0,0.0
440,General Pico,AR,2020-04-20 04:34:11,-35.66,-63.76,60.91,71,1,3.56,clear sky,0.0,0.0
441,Papagaios,BR,2020-04-20 04:34:11,-19.45,-44.75,61.92,76,70,3.38,broken clouds,0.0,0.0
442,Lavrentiya,RU,2020-04-20 04:34:12,65.58,-171.0,16.0,93,98,6.69,overcast clouds,0.0,0.0
443,Mezen,RU,2020-04-20 04:34:12,65.85,44.24,33.33,93,75,3.96,broken clouds,0.0,0.0
444,Pekalongan,ID,2020-04-20 04:34:12,-6.89,109.68,88.74,59,49,6.13,light rain,0.37,0.0
445,Saint-Augustin,CA,2020-04-20 04:34:12,51.23,-58.65,28.47,98,100,15.59,snow,0.0,3.84
446,Mogadishu,SO,2020-04-20 04:34:13,2.04,45.34,84.42,69,100,12.17,light rain,1.82,0.0
447,Dunmore Town,BS,2020-04-20 04:34:13,25.5,-76.65,78.03,81,18,14.63,few clouds,0.0,0.0
448,Lovington,US,2020-04-20 04:34:13,32.94,-103.35,60.01,24,1,6.93,clear sky,0.0,0.0
449,Zheleznodorozhnyy,RU,2020-04-20 04:34:14,55.75,38.0,35.6,93,40,6.71,scattered clouds,0.0,0.0
450,Quime,BO,2020-04-20 04:34:14,-16.98,-67.22,47.03,35,28,1.36,scattered clouds,0.0,0.0
451,Klaksvik,FO,2020-04-20 04:34:14,62.23,-6.59,42.8,93,0,14.99,clear sky,0.0,0.0
452,Letterkenny,IE,2020-04-20 04:34:15,54.95,-7.73,39.72,81,15,6.91,few clouds,0.0,0.0
453,Diego De Almagro,CL,2020-04-20 04:34:15,-26.37,-70.05,55.24,53,0,1.25,clear sky,0.0,0.0
454,Ulladulla,AU,2020-04-20 04:34:15,-35.35,150.47,69.01,45,100,6.93,overcast clouds,0.0,0.0
455,Kamenka,RU,2020-04-20 04:34:15,51.32,42.77,37.0,86,54,1.99,broken clouds,0.0,0.0
456,Ahuimanu,US,2020-04-20 04:34:16,21.44,-157.84,82.4,54,75,5.82,broken clouds,0.0,0.0
457,Antofagasta,CL,2020-04-20 04:34:16,-23.65,-70.4,59.0,87,20,1.12,few clouds,0.0,0.0
458,Rio Grande,BR,2020-04-20 04:29:49,-32.03,-52.1,64.99,94,0,13.24,clear sky,0.0,0.0
459,Uddevalla,SE,2020-04-20 04:32:45,58.35,11.94,46.15,70,0,4.92,clear sky,0.0,0.0
460,Hami,CN,2020-04-20 04:34:17,42.8,93.45,70.9,13,85,4.56,overcast clouds,0.0,0.0
461,Liverpool,GB,2020-04-20 04:29:25,53.41,-2.98,42.01,86,0,5.82,clear sky,0.0,0.0
462,Fengcheng,CN,2020-04-20 04:34:17,40.45,124.07,50.72,50,69,21.12,broken clouds,0.0,0.0
463,Kimbe,PG,2020-04-20 04:34:17,-5.55,150.14,84.29,78,88,1.54,moderate rain,4.64,0.0
464,Bonthe,SL,2020-04-20 04:34:18,7.53,-12.51,80.2,83,99,4.36,overcast clouds,0.0,0.0
465,Aksu,CN,2020-04-20 04:34:18,41.12,80.26,63.37,31,71,4.63,broken clouds,0.0,0.0
466,Huangchuan,CN,2020-04-20 04:34:18,32.13,115.04,61.45,63,99,8.28,light rain,1.16,0.0
467,Pedro Ii,BR,2020-04-20 04:34:19,-4.42,-41.46,67.53,86,99,1.01,overcast clouds,0.0,0.0
468,Soyo,AO,2020-04-20 04:34:19,-6.13,12.37,78.87,83,93,2.75,overcast clouds,0.0,0.0
469,Tuscaloosa,US,2020-04-20 04:30:04,33.21,-87.57,62.6,88,75,3.36,moderate rain,0.0,0.0
470,Ugoofaaru,MV,2020-04-20 04:32:48,5.67,73.0,86.47,71,50,9.53,light rain,0.56,0.0
471,Port Keats,AU,2020-04-20 04:34:20,-14.25,129.55,91.18,50,77,4.5,broken clouds,0.0,0.0
472,Zalesovo,RU,2020-04-20 04:34:20,53.99,84.74,60.84,46,47,3.62,scattered clouds,0.0,0.0
473,Daru,PG,2020-04-20 04:34:20,-9.08,143.21,84.49,74,73,8.66,light rain,0.17,0.0
474,Gat,IL,2020-04-20 04:31:54,31.61,34.76,64.0,19,5,1.01,clear sky,0.0,0.0
475,Ketchikan,US,2020-04-20 04:34:21,55.34,-131.65,46.4,87,90,11.41,overcast clouds,0.0,0.0
476,Karratha,AU,2020-04-20 04:34:21,-20.74,116.85,88.61,48,97,10.85,overcast clouds,0.0,0.0
477,Zhuhai,CN,2020-04-20 04:34:21,22.28,113.57,84.2,83,40,12.75,scattered clouds,0.0,0.0
478,Kerman,IR,2020-04-20 04:34:22,30.28,57.08,59.0,62,98,4.7,overcast clouds,0.0,0.0
479,Silopi,TR,2020-04-20 04:34:22,37.25,42.47,69.12,40,4,1.7,clear sky,0.0,0.0
480,Sebring,US,2020-04-20 04:34:22,27.5,-81.44,78.01,83,1,6.93,clear sky,0.0,0.0
481,Lisala,CD,2020-04-20 04:34:22,2.15,21.52,72.59,83,100,1.59,overcast clouds,0.0,0.0
482,Taganak,PH,2020-04-20 04:34:22,6.08,118.3,89.6,70,20,8.05,few clouds,0.0,0.0
483,Ambon,ID,2020-04-20 04:34:23,-3.7,128.18,89.6,62,40,9.17,scattered clouds,0.0,0.0
484,Pingliang,CN,2020-04-20 04:34:23,35.54,106.69,52.07,22,100,6.38,overcast clouds,0.0,0.0
485,Codajas,BR,2020-04-20 04:34:23,-3.84,-62.06,73.26,96,100,2.44,light rain,0.25,0.0
486,Lazaro Cardenas,MX,2020-04-20 04:34:23,17.96,-102.2,75.63,84,60,1.68,broken clouds,0.0,0.0
487,Coahuayana,MX,2020-04-20 04:34:23,18.73,-103.68,72.5,77,1,2.71,clear sky,0.0,0.0
488,Pangody,RU,2020-04-20 04:34:24,65.85,74.49,33.96,97,75,11.65,broken clouds,0.0,0.0
489,Yanam,IN,2020-04-20 04:34:24,16.73,82.22,87.8,66,40,9.17,scattered clouds,0.0,0.0
490,Kamaishi,JP,2020-04-20 04:34:24,39.27,141.88,50.0,93,75,4.7,moderate rain,0.0,0.0
491,Aginskoye,RU,2020-04-20 04:31:22,51.1,114.53,31.32,47,100,19.55,overcast clouds,0.0,0.0
492,Itacare,BR,2020-04-20 04:34:01,-14.28,-39.0,73.4,94,90,5.82,moderate rain,0.0,0.0
493,Tarauaca,BR,2020-04-20 04:34:25,-8.16,-70.77,68.29,68,0,1.59,clear sky,0.0,0.0
494,Haines Junction,CA,2020-04-20 04:30:02,60.75,-137.51,38.75,63,87,7.78,overcast clouds,0.0,0.0
495,Tarbes,FR,2020-04-20 04:34:25,43.25,0.17,55.99,93,100,4.7,light rain,0.0,0.0
496,Hobyo,SO,2020-04-20 04:34:25,5.35,48.53,87.04,64,97,7.43,light rain,0.44,0.0
497,Colac,AU,2020-04-20 04:34:25,-38.33,143.58,61.0,78,35,10.0,scattered clouds,0.0,0.0
498,Lebowakgomo,ZA,2020-04-20 04:34:26,-24.2,29.5,53.6,81,0,1.12,clear sky,0.0,0.0
499,Dewa,IN,2020-04-20 04:34:26,27.03,81.17,87.8,52,75,4.7,haze,0.0,0.0
500,Ayan,RU,2020-04-20 04:34:26,56.45,138.17,23.61,90,100,16.02,light snow,0.0,0.34
501,Atikokan,CA,2020-04-20 04:34:26,48.76,-91.62,33.46,72,86,12.75,light snow,0.0,0.15
502,Rochegda,RU,2020-04-20 04:34:27,62.8,43.25,36.7,80,99,2.77,overcast clouds,0.0,0.0
503,Omboue,GA,2020-04-20 04:34:27,-1.57,9.26,77.13,89,100,5.86,light rain,0.21,0.0
504,Camacha,PT,2020-04-20 04:34:27,33.08,-16.33,64.4,77,40,11.41,scattered clouds,0.0,0.0
505,Bilma,NE,2020-04-20 04:34:27,18.69,12.92,83.98,13,90,6.82,overcast clouds,0.0,0.0
506,Riyadh,SA,2020-04-20 04:34:27,24.69,46.72,73.4,53,100,4.7,light rain,1.72,0.0
507,Ossora,RU,2020-04-20 04:34:28,59.24,163.07,21.52,89,20,9.37,few clouds,0.0,0.0
508,Jumla,NP,2020-04-20 04:34:28,29.27,82.18,59.56,22,67,5.41,light rain,1.54,0.0
509,Araouane,ML,2020-04-20 04:34:28,18.9,-3.53,74.46,20,0,11.65,clear sky,0.0,0.0
510,Sanaur,IN,2020-04-20 04:34:29,30.3,76.46,92.35,16,95,4.85,overcast clouds,0.0,0.0
511,San Andres,CO,2020-04-20 04:32:16,12.58,-81.7,82.4,74,20,9.17,few clouds,0.0,0.0
512,Chapais,CA,2020-04-20 04:32:42,49.78,-74.85,6.8,71,1,8.05,clear sky,0.0,0.0
513,Taiyuan,CN,2020-04-20 04:34:29,37.87,112.56,59.0,14,36,4.47,scattered clouds,0.0,0.0
514,Quatre Cocos,MU,2020-04-20 04:34:30,-20.21,57.76,75.2,88,40,11.41,shower rain,0.0,0.0
515,Saint-Georges,GD,2020-04-20 04:34:30,12.06,-61.75,78.8,88,40,11.41,light intensity shower rain,0.0,0.0
516,Lata,PT,2020-04-20 04:34:30,40.16,-8.33,51.01,91,100,1.86,overcast clouds,0.0,0.0
517,Boueni,YT,2020-04-20 04:34:30,-12.9,45.08,84.2,74,75,13.87,broken clouds,0.0,0.0
518,Tura,IN,2020-04-20 04:32:09,25.52,90.22,85.78,53,71,7.9,light rain,0.36,0.0
519,Lobito,AO,2020-04-20 04:34:31,-12.35,13.55,77.7,79,100,13.22,light rain,2.86,0.0
520,Palotina,BR,2020-04-20 04:33:42,-24.28,-53.84,62.51,71,0,5.79,clear sky,0.0,0.0
521,Caravelas,BR,2020-04-20 04:34:31,-17.71,-39.25,74.23,80,37,11.07,scattered clouds,0.0,0.0
522,Coihaique,CL,2020-04-20 04:34:32,-45.58,-72.07,37.4,93,40,2.24,scattered clouds,0.0,0.0
523,Nadym,RU,2020-04-20 04:34:32,65.53,72.52,34.77,99,91,12.53,overcast clouds,0.0,0.0
524,Erenhot,CN,2020-04-20 04:34:32,43.65,111.98,35.19,39,0,26.02,clear sky,0.0,0.0
525,Choma,ZM,2020-04-20 04:34:32,-16.81,26.95,61.43,51,3,10.45,clear sky,0.0,0.0
526,Zilair,RU,2020-04-20 04:34:33,52.23,57.44,46.06,80,100,6.35,light rain,0.52,0.0
527,Gonbad-E Qabus,IR,2020-04-20 04:34:33,37.25,55.17,57.2,93,90,3.18,fog,0.0,0.0
528,Hokitika,NZ,2020-04-20 04:34:33,-42.72,170.97,52.65,71,59,0.74,light rain,0.26,0.0
529,Terrace,CA,2020-04-20 04:31:48,54.52,-128.6,51.8,62,40,16.11,scattered clouds,0.0,0.0
530,Matay,EG,2020-04-20 04:34:34,28.42,30.78,67.78,46,0,14.61,clear sky,0.0,0.0
531,Fairhope,US,2020-04-20 04:34:34,30.52,-87.9,75.99,94,90,5.82,overcast clouds,0.0,0.0
532,Shu,KZ,2020-04-20 04:34:34,43.6,73.76,72.03,29,0,11.01,clear sky,0.0,0.0
533,Boguchany,RU,2020-04-20 04:34:35,58.38,97.45,44.24,49,0,8.84,clear sky,0.0,0.0
534,Verkhoyansk,RU,2020-04-20 04:34:35,67.54,133.38,22.71,90,94,5.64,overcast clouds,0.0,0.0
535,Moron,AR,2020-04-20 04:34:35,-34.65,-58.62,64.0,91,0,5.21,clear sky,0.0,0.0
536,Parga,GR,2020-04-20 04:34:36,39.28,20.4,55.4,93,75,1.63,broken clouds,0.0,0.0
537,Tuatapere,NZ,2020-04-20 04:34:36,-46.13,167.68,55.99,74,19,7.0,few clouds,0.0,0.0
538,Cananeia,BR,2020-04-20 04:34:36,-25.01,-47.93,65.34,87,24,2.71,few clouds,0.0,0.0
539,Urambo,TZ,2020-04-20 04:34:36,-5.07,32.05,65.79,70,100,1.28,light rain,1.47,0.0
540,Colorado,BR,2020-04-20 04:34:37,-22.84,-51.97,61.86,80,0,9.44,clear sky,0.0,0.0
541,Maloy,NO,2020-04-20 04:34:37,61.94,5.11,39.99,93,0,8.05,clear sky,0.0,0.0
542,Beyneu,KZ,2020-04-20 04:34:37,45.32,55.2,69.08,40,92,4.72,overcast clouds,0.0,0.0
543,Sao Gabriel Da Cachoeira,BR,2020-04-20 04:33:08,-0.13,-67.09,71.85,95,65,1.28,light rain,3.0,0.0
544,Maraa,BR,2020-04-20 04:34:38,-1.83,-65.37,71.46,96,63,1.57,broken clouds,0.0,0.0
545,Monopoli,IT,2020-04-20 04:34:38,40.96,17.29,62.01,76,20,4.7,few clouds,0.0,0.0
546,Calvinia,ZA,2020-04-20 04:34:38,-31.47,19.78,63.88,23,0,4.43,clear sky,0.0,0.0
547,Inhambane,MZ,2020-04-20 04:34:38,-23.86,35.38,71.6,94,75,5.82,drizzle rain,0.0,0.0
548,Madanapalle,IN,2020-04-20 04:34:39,13.55,78.5,93.92,18,5,12.88,clear sky,0.0,0.0
549,Muros,ES,2020-04-20 04:34:39,42.78,-9.06,51.01,94,99,6.46,light rain,0.14,0.0
550,Mangrol,IN,2020-04-20 04:34:39,21.12,70.12,89.51,42,0,13.02,clear sky,0.0,0.0
551,Wagar,SD,2020-04-20 04:34:40,16.15,36.2,84.27,12,3,9.4,clear sky,0.0,0.0
552,Nicoya,CR,2020-04-20 04:30:01,10.15,-85.45,71.01,86,3,10.0,clear sky,0.0,0.0
553,Sao Raimundo Nonato,BR,2020-04-20 04:33:06,-9.02,-42.7,70.92,84,55,3.29,broken clouds,0.0,0.0
554,Smila,UA,2020-04-20 04:34:40,49.22,31.89,43.77,59,20,15.17,few clouds,0.0,0.0
555,Borogontsy,RU,2020-04-20 04:34:41,62.67,131.17,27.09,79,3,3.38,clear sky,0.0,0.0
556,Mount Isa,AU,2020-04-20 04:30:51,-20.73,139.5,95.0,14,48,9.17,scattered clouds,0.0,0.0
